{"ast":null,"code":"export default {\n  runDATA: [],\n  location: [{\n    name: 'Comanche Hill',\n    title: 'Beach Day',\n    position: {\n      lat: 29.424601,\n      lng: -98.680008\n    }\n  }, {\n    name: 'Friesenhahn Park',\n    title: 'Friends Forever',\n    position: {\n      lat: 29.522490,\n      lng: -98.677580\n    }\n  }, {\n    name: 'McAllister Park',\n    title: 'Purple Heart Day',\n    position: {\n      lat: 29.522490,\n      lng: -98.677580\n    }\n  }, {\n    name: 'McClain Park',\n    title: \"S'mores Day\",\n    position: {\n      lat: 29.522490,\n      lng: -98.677580\n    }\n  }, {\n    name: 'Brackenridge Park',\n    title: 'The Human Heart Mile',\n    position: {\n      lat: 29.578760,\n      lng: -98.626330\n    }\n  }, {\n    name: 'Gold Canyon Park',\n    title: 'Footprints in the Sand',\n    position: {\n      lat: 29.607640,\n      lng: -98.456770\n    }\n  }, {\n    name: 'Phil Hardberger Park; East Entrance',\n    title: 'Potato Day ',\n    position: {\n      lat: 29.489480,\n      lng: -98.410560\n    }\n  }, {\n    name: 'LBJ Park',\n    title: 'Race Across the Greece',\n    position: {\n      lat: 37.272040,\n      lng: -121.861260\n    }\n  }, {\n    name: 'Walker Ranch Landmark',\n    title: 'Love Your Enemies',\n    position: {\n      lat: 29.428350,\n      lng: -98.513100\n    }\n  }, {\n    name: 'Japenese Tea Garden',\n    title: 'Day of the Dog',\n    position: {\n      lat: 29.460070,\n      lng: -98.477510\n    }\n  }],\n  getPosts: {\n    posts: [],\n    post: null,\n    loading: true,\n    error: {}\n  },\n  getPr\n};","map":{"version":3,"sources":["/Users/amberjones/Desktop/Workspace/Chat_App-MERN/client/src/State.js"],"names":["runDATA","location","name","title","position","lat","lng","getPosts","posts","post","loading","error","getPr"],"mappings":"AAAA,eAAe;AACbA,EAAAA,OAAO,EAAE,EADI;AAEbC,EAAAA,QAAQ,EAAE,CACR;AAACC,IAAAA,IAAI,EAAE,eAAP;AAAwBC,IAAAA,KAAK,EAAE,WAA/B;AACAC,IAAAA,QAAQ,EAAC;AAACC,MAAAA,GAAG,EAAE,SAAN;AAAiBC,MAAAA,GAAG,EAAE,CAAC;AAAvB;AADT,GADQ,EAGR;AAACJ,IAAAA,IAAI,EAAE,kBAAP;AAA2BC,IAAAA,KAAK,EAAE,iBAAlC;AACAC,IAAAA,QAAQ,EAAC;AAACC,MAAAA,GAAG,EAAE,SAAN;AAAiBC,MAAAA,GAAG,EAAE,CAAC;AAAvB;AADT,GAHQ,EAKR;AAACJ,IAAAA,IAAI,EAAE,iBAAP;AAA0BC,IAAAA,KAAK,EAAE,kBAAjC;AACAC,IAAAA,QAAQ,EAAC;AAACC,MAAAA,GAAG,EAAE,SAAN;AAAiBC,MAAAA,GAAG,EAAC,CAAC;AAAtB;AADT,GALQ,EAOR;AAACJ,IAAAA,IAAI,EAAE,cAAP;AAAuBC,IAAAA,KAAK,eAA5B;AACAC,IAAAA,QAAQ,EAAC;AAACC,MAAAA,GAAG,EAAC,SAAL;AAAgBC,MAAAA,GAAG,EAAE,CAAC;AAAtB;AADT,GAPQ,EASR;AAACJ,IAAAA,IAAI,EAAE,mBAAP;AAA4BC,IAAAA,KAAK,EAAE,sBAAnC;AACAC,IAAAA,QAAQ,EAAC;AAACC,MAAAA,GAAG,EAAC,SAAL;AAAgBC,MAAAA,GAAG,EAAE,CAAC;AAAtB;AADT,GATQ,EAWR;AAACJ,IAAAA,IAAI,EAAE,kBAAP;AAA2BC,IAAAA,KAAK,EAAE,wBAAlC;AACAC,IAAAA,QAAQ,EAAC;AAACC,MAAAA,GAAG,EAAC,SAAL;AAAgBC,MAAAA,GAAG,EAAE,CAAC;AAAtB;AADT,GAXQ,EAaR;AAACJ,IAAAA,IAAI,EAAE,qCAAP;AAA8CC,IAAAA,KAAK,EAAE,aAArD;AACCC,IAAAA,QAAQ,EAAC;AAACC,MAAAA,GAAG,EAAE,SAAN;AAAiBC,MAAAA,GAAG,EAAE,CAAC;AAAvB;AADV,GAbQ,EAeR;AAACJ,IAAAA,IAAI,EAAE,UAAP;AAAmBC,IAAAA,KAAK,EAAE,wBAA1B;AACAC,IAAAA,QAAQ,EAAC;AAACC,MAAAA,GAAG,EAAE,SAAN;AAAiBC,MAAAA,GAAG,EAAE,CAAC;AAAvB;AADT,GAfQ,EAiBR;AAACJ,IAAAA,IAAI,EAAE,uBAAP;AAAgCC,IAAAA,KAAK,EAAE,mBAAvC;AACCC,IAAAA,QAAQ,EAAC;AAACC,MAAAA,GAAG,EAAE,SAAN;AAAiBC,MAAAA,GAAG,EAAC,CAAC;AAAtB;AADV,GAjBQ,EAmBR;AAACJ,IAAAA,IAAI,EAAE,qBAAP;AAA8BC,IAAAA,KAAK,EAAE,gBAArC;AACCC,IAAAA,QAAQ,EAAC;AAACC,MAAAA,GAAG,EAAE,SAAN;AAAiBC,MAAAA,GAAG,EAAE,CAAC;AAAvB;AADV,GAnBQ,CAFG;AAwBbC,EAAAA,QAAQ,EAAE;AACRC,IAAAA,KAAK,EAAE,EADC;AAERC,IAAAA,IAAI,EAAE,IAFE;AAGRC,IAAAA,OAAO,EAAE,IAHD;AAIRC,IAAAA,KAAK,EAAE;AAJC,GAxBG;AA8BbC,EAAAA;AA9Ba,CAAf","sourcesContent":["export default {\n  runDATA: [],\n  location: [\n    {name: 'Comanche Hill', title: 'Beach Day', \n    position:{lat: 29.424601, lng: -98.680008}}, \n    {name: 'Friesenhahn Park', title: 'Friends Forever', \n    position:{lat: 29.522490, lng: -98.677580}}, \n    {name: 'McAllister Park', title: 'Purple Heart Day', \n    position:{lat: 29.522490, lng:-98.677580}}, \n    {name: 'McClain Park', title: `S'mores Day`,\n    position:{lat:29.522490, lng: -98.677580 }}, \n    {name: 'Brackenridge Park', title: 'The Human Heart Mile', \n    position:{lat:29.578760, lng: -98.626330}}, \n    {name: 'Gold Canyon Park', title: 'Footprints in the Sand',\n    position:{lat:29.607640, lng: -98.456770}}, \n    {name: 'Phil Hardberger Park; East Entrance', title: 'Potato Day ',\n     position:{lat: 29.489480, lng: -98.410560}}, \n    {name: 'LBJ Park', title: 'Race Across the Greece',\n    position:{lat: 37.272040, lng: -121.861260}}, \n    {name: 'Walker Ranch Landmark', title: 'Love Your Enemies',\n     position:{lat: 29.428350, lng:-98.513100}}, \n    {name: 'Japenese Tea Garden', title: 'Day of the Dog',\n     position:{lat: 29.460070, lng: -98.477510}}\n  ],\n  getPosts: {\n    posts: [],\n    post: null,\n    loading: true,\n    error: {}\n  },\n  getPr\n}"]},"metadata":{},"sourceType":"module"}