{"ast":null,"code":"export default {\n  runDATA: [],\n  location: [{\n    name: 'Comanche Hill',\n    title: 'Beach Day',\n    position: {\n      lat: 29.424601,\n      lng: -98.680008\n    }\n  }, {\n    name: 'Friesenhahn Park',\n    title: 'Friends Forever',\n    position: {\n      lat: 29.522490,\n      lng: -98.677580\n    }\n  }, {\n    name: 'McAllister Park',\n    title: 'Purple Heart Day',\n    position: {\n      lat: 29.522490,\n      lng: -98.677580\n    }\n  }, {\n    name: 'McClain Park',\n    title: \"S'mores Day\",\n    position: {\n      lat: 29.522490,\n      lng: -98.677580\n    }\n  }, {\n    name: 'Brackenridge Park',\n    title: 'The Human Heart Mile',\n    position: {\n      lat: 29.578760,\n      lng: -98.626330\n    }\n  }, {\n    name: 'Gold Canyon Park',\n    title: 'Footprints in the Sand',\n    position: {\n      lat: 29.607640,\n      lng: -98.456770\n    }\n  }, {\n    name: 'Phil Hardberger Park; East Entrance',\n    title: 'Potato Day ',\n    position: {\n      lat: 29.489480,\n      lng: -98.410560\n    }\n  }, {\n    name: 'LBJ Park',\n    title: 'Race Across the Greece',\n    position: {\n      lat: 37.272040,\n      lng: -121.861260\n    }\n  }, {\n    name: 'Walker Ranch Landmark',\n    title: 'Love Your Enemies',\n    position: {\n      lat: 29.428350,\n      lng: -98.513100\n    }\n  }, {\n    name: 'Japenese Tea Garden',\n    title: 'Day of the Dog',\n    position: {\n      lat: 29.460070,\n      lng: -98.477510\n    }\n  }],\n  posts: []\n};","map":{"version":3,"sources":["/Users/amberjones/Desktop/Workspace/Chat_App-MERN/client/src/State.js"],"names":["runDATA","location","name","title","position","lat","lng","posts"],"mappings":"AAAA,eAAe;AACbA,EAAAA,OAAO,EAAE,EADI;AAEbC,EAAAA,QAAQ,EAAE,CAAC;AACPC,IAAAA,IAAI,EAAE,eADC;AAEPC,IAAAA,KAAK,EAAE,WAFA;AAGPC,IAAAA,QAAQ,EAAE;AACRC,MAAAA,GAAG,EAAE,SADG;AAERC,MAAAA,GAAG,EAAE,CAAC;AAFE;AAHH,GAAD,EAQR;AACEJ,IAAAA,IAAI,EAAE,kBADR;AAEEC,IAAAA,KAAK,EAAE,iBAFT;AAGEC,IAAAA,QAAQ,EAAE;AACRC,MAAAA,GAAG,EAAE,SADG;AAERC,MAAAA,GAAG,EAAE,CAAC;AAFE;AAHZ,GARQ,EAgBR;AACEJ,IAAAA,IAAI,EAAE,iBADR;AAEEC,IAAAA,KAAK,EAAE,kBAFT;AAGEC,IAAAA,QAAQ,EAAE;AACRC,MAAAA,GAAG,EAAE,SADG;AAERC,MAAAA,GAAG,EAAE,CAAC;AAFE;AAHZ,GAhBQ,EAwBR;AACEJ,IAAAA,IAAI,EAAE,cADR;AAEEC,IAAAA,KAAK,eAFP;AAGEC,IAAAA,QAAQ,EAAE;AACRC,MAAAA,GAAG,EAAE,SADG;AAERC,MAAAA,GAAG,EAAE,CAAC;AAFE;AAHZ,GAxBQ,EAgCR;AACEJ,IAAAA,IAAI,EAAE,mBADR;AAEEC,IAAAA,KAAK,EAAE,sBAFT;AAGEC,IAAAA,QAAQ,EAAE;AACRC,MAAAA,GAAG,EAAE,SADG;AAERC,MAAAA,GAAG,EAAE,CAAC;AAFE;AAHZ,GAhCQ,EAwCR;AACEJ,IAAAA,IAAI,EAAE,kBADR;AAEEC,IAAAA,KAAK,EAAE,wBAFT;AAGEC,IAAAA,QAAQ,EAAE;AACRC,MAAAA,GAAG,EAAE,SADG;AAERC,MAAAA,GAAG,EAAE,CAAC;AAFE;AAHZ,GAxCQ,EAgDR;AACEJ,IAAAA,IAAI,EAAE,qCADR;AAEEC,IAAAA,KAAK,EAAE,aAFT;AAGEC,IAAAA,QAAQ,EAAE;AACRC,MAAAA,GAAG,EAAE,SADG;AAERC,MAAAA,GAAG,EAAE,CAAC;AAFE;AAHZ,GAhDQ,EAwDR;AACEJ,IAAAA,IAAI,EAAE,UADR;AAEEC,IAAAA,KAAK,EAAE,wBAFT;AAGEC,IAAAA,QAAQ,EAAE;AACRC,MAAAA,GAAG,EAAE,SADG;AAERC,MAAAA,GAAG,EAAE,CAAC;AAFE;AAHZ,GAxDQ,EAgER;AACEJ,IAAAA,IAAI,EAAE,uBADR;AAEEC,IAAAA,KAAK,EAAE,mBAFT;AAGEC,IAAAA,QAAQ,EAAE;AACRC,MAAAA,GAAG,EAAE,SADG;AAERC,MAAAA,GAAG,EAAE,CAAC;AAFE;AAHZ,GAhEQ,EAwER;AACEJ,IAAAA,IAAI,EAAE,qBADR;AAEEC,IAAAA,KAAK,EAAE,gBAFT;AAGEC,IAAAA,QAAQ,EAAE;AACRC,MAAAA,GAAG,EAAE,SADG;AAERC,MAAAA,GAAG,EAAE,CAAC;AAFE;AAHZ,GAxEQ,CAFG;AAmFbC,EAAAA,KAAK,EAAE;AAnFM,CAAf","sourcesContent":["export default {\n  runDATA: [],\n  location: [{\n      name: 'Comanche Hill',\n      title: 'Beach Day',\n      position: {\n        lat: 29.424601,\n        lng: -98.680008\n      }\n    },\n    {\n      name: 'Friesenhahn Park',\n      title: 'Friends Forever',\n      position: {\n        lat: 29.522490,\n        lng: -98.677580\n      }\n    },\n    {\n      name: 'McAllister Park',\n      title: 'Purple Heart Day',\n      position: {\n        lat: 29.522490,\n        lng: -98.677580\n      }\n    },\n    {\n      name: 'McClain Park',\n      title: `S'mores Day`,\n      position: {\n        lat: 29.522490,\n        lng: -98.677580\n      }\n    },\n    {\n      name: 'Brackenridge Park',\n      title: 'The Human Heart Mile',\n      position: {\n        lat: 29.578760,\n        lng: -98.626330\n      }\n    },\n    {\n      name: 'Gold Canyon Park',\n      title: 'Footprints in the Sand',\n      position: {\n        lat: 29.607640,\n        lng: -98.456770\n      }\n    },\n    {\n      name: 'Phil Hardberger Park; East Entrance',\n      title: 'Potato Day ',\n      position: {\n        lat: 29.489480,\n        lng: -98.410560\n      }\n    },\n    {\n      name: 'LBJ Park',\n      title: 'Race Across the Greece',\n      position: {\n        lat: 37.272040,\n        lng: -121.861260\n      }\n    },\n    {\n      name: 'Walker Ranch Landmark',\n      title: 'Love Your Enemies',\n      position: {\n        lat: 29.428350,\n        lng: -98.513100\n      }\n    },\n    {\n      name: 'Japenese Tea Garden',\n      title: 'Day of the Dog',\n      position: {\n        lat: 29.460070,\n        lng: -98.477510\n      }\n    }\n  ],\n  posts: []\n}"]},"metadata":{},"sourceType":"module"}